header: 
  seq: 384
  stamp: 
    secs: 3
    nsecs: 433000000
  frame_id: ''
child_frame_id: ''
pose: 
  position: 
    x: 0.334466618304
    y: 0.241174685544
    z: 0.0299403937008
  orientation: 
    x: -0.493699310219
    y: -0.501558282791
    z: 0.506172308541
    w: -0.498487586726
twist: 
  linear: 
    x: -0.00112492965185
    y: -0.000432270275173
    z: -0.00300050945501
  angular: 
    x: -0.00330173819974
    y: 0.00877328909327
    z: -1.54584859472e-05
---
header: 
  seq: 385
  stamp: 
    secs: 3
    nsecs: 441000000
  frame_id: ''
child_frame_id: ''
pose: 
  position: 
    x: 0.334457621283
    y: 0.241171228602
    z: 0.0299163987968
  orientation: 
    x: -0.493675001922
    y: -0.501569057674
    z: 0.506196280453
    w: -0.498476477395
twist: 
  linear: 
    x: -0.00112495090514
    y: -0.000431397777784
    z: -0.00299862779089
  angular: 
    x: -0.00330014215081
    y: 0.00876986920416
    z: -1.32166802235e-05
---
header: 
  seq: 386
  stamp: 
    secs: 3
    nsecs: 449000000
  frame_id: ''
child_frame_id: ''
pose: 
  position: 
    x: 0.334448623845
    y: 0.241167770555
    z: 0.0298924056805
  orientation: 
    x: -0.49365069543
    y: -0.501579830478
    z: 0.506220250396
    w: -0.498465367551
twist: 
  linear: 
    x: -0.00112525386502
    y: -0.000432376245424
    z: -0.003000247198
  angular: 
    x: -0.00330165522343
    y: 0.00877302000335
    z: -1.54219638309e-05
---
header: 
  seq: 387
  stamp: 
    secs: 3
    nsecs: 457000000
  frame_id: ''
child_frame_id: ''
pose: 
  position: 
    x: 0.334439623846
    y: 0.241164312765
    z: 0.0298684120674
  orientation: 
    x: -0.49362638564
    y: -0.501590604059
    z: 0.506244220679
    w: -0.498454257028
twist: 
  linear: 
    x: -0.0011253709805
    y: -0.000431447600287
    z: -0.00299848003579
  angular: 
    x: -0.00330025127904
    y: 0.00876996986225
    z: -1.29665417235e-05
---
header: 
  seq: 388
  stamp: 
    secs: 3
    nsecs: 465000000
  frame_id: ''
child_frame_id: ''
pose: 
  position: 
    x: 0.334430623927
    y: 0.241160853773
    z: 0.029844421132
  orientation: 
    x: -0.493602078752
    y: -0.501601375019
    z: 0.506268188256
    w: -0.498443146197
twist: 
  linear: 
    x: -0.0011255739838
    y: -0.000432879493393
    z: -0.00300059225329
  angular: 
    x: -0.00330121215086
    y: 0.00877343142908
    z: -1.63105685899e-05
---
header: 
  seq: 389
  stamp: 
    secs: 3
    nsecs: 473000000
  frame_id: ''
child_frame_id: ''
pose: 
  position: 
    x: 0.334421620933
    y: 0.241157394466
    z: 0.0298204277125
  orientation: 
    x: -0.493577767215
    y: -0.501612147028
    z: 0.506292158007
    w: -0.498432033888
twist: 
  linear: 
    x: -0.0011255961275
    y: -0.000432534383392
    z: -0.00299955114842
  angular: 
    x: -0.00330104365755
    y: 0.00877154069137
    z: -1.54832595997e-05
---
header: 
  seq: 390
  stamp: 
    secs: 3
    nsecs: 481000000
  frame_id: ''
child_frame_id: ''
pose: 
  position: 
    x: 0.334412618097
    y: 0.24115393551
    z: 0.0297964395891
  orientation: 
    x: -0.493553459121
    y: -0.501622916912
    z: 0.506316122572
    w: -0.498420922757
twist: 
  linear: 
    x: -0.00112588500837
    y: -0.000432986867872
    z: -0.00300030474473
  angular: 
    x: -0.00330109275795
    y: 0.00877308075012
    z: -1.62890190238e-05
---
header: 
  seq: 391
  stamp: 
    secs: 3
    nsecs: 489000000
  frame_id: ''
child_frame_id: ''
pose: 
  position: 
    x: 0.334403612212
    y: 0.24115047531
    z: 0.0297724475766
  orientation: 
    x: -0.493529146281
    y: -0.501633687529
    z: 0.5063400906
    w: -0.498409809251
twist: 
  linear: 
    x: -0.00112603042893
    y: -0.000432568252129
    z: -0.00299940757725
  angular: 
    x: -0.00330126812291
    y: 0.00877178671482
    z: -1.51852524924e-05
---
header: 
  seq: 392
  stamp: 
    secs: 3
    nsecs: 497000000
  frame_id: ''
child_frame_id: ''
pose: 
  position: 
    x: 0.334394606884
    y: 0.241147015742
    z: 0.0297484621301
  orientation: 
    x: -0.4935048375
    y: -0.501644455574
    z: 0.506364052628
    w: -0.498398697592
twist: 
  linear: 
    x: -0.0011242354143
    y: -0.000432878667156
    z: -0.00299557313982
  angular: 
    x: -0.00329751656183
    y: 0.00876161505919
    z: -1.7451418832e-05
---
header: 
  seq: 393
  stamp: 
    secs: 3
    nsecs: 505000000
  frame_id: ''
child_frame_id: ''
pose: 
  position: 
    x: 0.334385597935
    y: 0.241143554577
    z: 0.0297244710404
  orientation: 
    x: -0.493480523163
    y: -0.501655224993
    z: 0.506388019173
    w: -0.498387582645
twist: 
  linear: 
    x: -0.00112636356217
    y: -0.000432671314114
    z: -0.00299915976568
  angular: 
    x: -0.00330120236783
    y: 0.00877155778123
    z: -1.51340127002e-05
---
header: 
  seq: 394
  stamp: 
    secs: 3
    nsecs: 513000000
  frame_id: ''
child_frame_id: ''
pose: 
  position: 
    x: 0.334376589675
    y: 0.241140094202
    z: 0.0297004870452
  orientation: 
    x: -0.493456213002
    y: -0.501665991682
    z: 0.50641197943
    w: -0.498376469879
twist: 
  linear: 
    x: -0.00112451051662
    y: -0.000432957193059
    z: -0.00299516789619
  angular: 
    x: -0.00329733820822
    y: 0.00876099756241
    z: -1.73940925548e-05
---
header: 
  seq: 395
  stamp: 
    secs: 3
    nsecs: 521000000
  frame_id: ''
child_frame_id: ''
pose: 
  position: 
    x: 0.334367577977
    y: 0.241136632048
    z: 0.0296764975075
  orientation: 
    x: -0.493431897696
    y: -0.501676759558
    z: 0.50643594411
    w: -0.498365353701
twist: 
  linear: 
    x: -0.00112688055453
    y: -0.000432831474375
    z: -0.00299938423833
  angular: 
    x: -0.00330153922816
    y: 0.00877256801756
    z: -1.50579602463e-05
---
header: 
  seq: 396
  stamp: 
    secs: 3
    nsecs: 529000000
  frame_id: ''
child_frame_id: ''
pose: 
  position: 
    x: 0.334358565361
    y: 0.241133170608
    z: 0.0296525116022
  orientation: 
    x: -0.493407582823
    y: -0.501687526432
    z: 0.506459905588
    w: -0.498354238536
twist: 
  linear: 
    x: -0.00112689890854
    y: -0.000431956661561
    z: -0.0029974967875
  angular: 
    x: -0.00329993736618
    y: 0.00876913342327
    z: -1.28130943685e-05
---
header: 
  seq: 397
  stamp: 
    secs: 3
    nsecs: 537000000
  frame_id: ''
child_frame_id: ''
pose: 
  position: 
    x: 0.334349552341
    y: 0.241129708041
    z: 0.0296285274731
  orientation: 
    x: -0.49338326976
    y: -0.501698291217
    z: 0.506483865125
    w: -0.498343122837
twist: 
  linear: 
    x: -0.00112720448544
    y: -0.000432937348002
    z: -0.00299912160367
  angular: 
    x: -0.00330145609179
    y: 0.00877229840817
    z: -1.50213957922e-05
---
header: 
  seq: 398
  stamp: 
    secs: 3
    nsecs: 545000000
  frame_id: ''
child_frame_id: ''
pose: 
  position: 
    x: 0.334340536748
    y: 0.241126245754
    z: 0.0296045428633
  orientation: 
    x: -0.493358953397
    y: -0.501709056788
    z: 0.50650782497
    w: -0.498332006481
twist: 
  linear: 
    x: -0.00112731866337
    y: -0.00043200641294
    z: -0.00299734836847
  angular: 
    x: -0.00330004605857
    y: 0.00876923280733
    z: -1.25629059887e-05
---
header: 
  seq: 399
  stamp: 
    secs: 3
    nsecs: 553000000
  frame_id: ''
child_frame_id: ''
pose: 
  position: 
    x: 0.334331521247
    y: 0.241122782244
    z: 0.0295805609173
  orientation: 
    x: -0.493334639939
    y: -0.50171981973
    z: 0.506531782138
    w: -0.4983208898
twist: 
  linear: 
    x: -0.00112752499495
    y: -0.000433440618923
    z: -0.0029994667567
  angular: 
    x: -0.00330101354528
    y: 0.00877271160059
    z: -1.59104248951e-05
---
header: 
  seq: 400
  stamp: 
    secs: 3
    nsecs: 561000000
  frame_id: ''
child_frame_id: ''
pose: 
  position: 
    x: 0.334322502664
    y: 0.241119318434
    z: 0.0295565764988
  orientation: 
    x: -0.493310321831
    y: -0.501730583727
    z: 0.506555741458
    w: -0.498309771652
twist: 
  linear: 
    x: -0.001127546493
    y: -0.00043309547429
    z: -0.00299842617187
  angular: 
    x: -0.00330084547222
    y: 0.00877082171547
    z: -1.50829088041e-05
---
header: 
  seq: 401
  stamp: 
    secs: 3
    nsecs: 569000000
  frame_id: ''
child_frame_id: ''
pose: 
  position: 
    x: 0.334313484248
    y: 0.241115854967
    z: 0.0295325973758
  orientation: 
    x: -0.493286007173
    y: -0.501741345592
    z: 0.506579695602
    w: -0.498298654678
twist: 
  linear: 
    x: -0.00112783575324
    y: -0.00043354790658
    z: -0.00299917897104
  angular: 
    x: -0.00330089409142
    y: 0.00877236067856
    z: -1.58888506779e-05
---
header: 
  seq: 402
  stamp: 
    secs: 3
    nsecs: 577000000
  frame_id: ''
child_frame_id: ''
pose: 
  position: 
    x: 0.334304462775
    y: 0.241112390265
    z: 0.0295086143684
  orientation: 
    x: -0.493261687765
    y: -0.501752108197
    z: 0.506603653197
    w: -0.498287535336
twist: 
  linear: 
    x: -0.00112798039347
    y: -0.000433129210396
    z: -0.00299828165606
  angular: 
    x: -0.00330106918895
    y: 0.00877106555822
    z: -1.47847110626e-05
---
header: 
  seq: 403
  stamp: 
    secs: 3
    nsecs: 585000000
  frame_id: ''
child_frame_id: ''
pose: 
  position: 
    x: 0.334295441867
    y: 0.241108926191
    z: 0.0294846379252
  orientation: 
    x: -0.493237372421
    y: -0.501762868225
    z: 0.506627604799
    w: -0.498276417838
twist: 
  linear: 
    x: -0.00112618573918
    y: -0.000433439614354
    z: -0.00299445572869
  angular: 
    x: -0.0032973248327
    y: 0.00876091467127
    z: -1.70510457645e-05
---
header: 
  seq: 404
  stamp: 
    secs: 3
    nsecs: 593000000
  frame_id: ''
child_frame_id: ''
pose: 
  position: 
    x: 0.334286417335
    y: 0.24110546052
    z: 0.0294606558448
  orientation: 
    x: -0.49321305152
    y: -0.501773629628
    z: 0.50665156091
    w: -0.498265297053
twist: 
  linear: 
    x: -0.00112831324335
    y: -0.000433232174452
    z: -0.0029980334332
  angular: 
    x: -0.00330100324295
    y: 0.00877083602049
    z: -1.47334216088e-05
---
header: 
  seq: 405
  stamp: 
    secs: 3
    nsecs: 601000000
  frame_id: ''
child_frame_id: ''
pose: 
  position: 
    x: 0.334277393497
    y: 0.241101995641
    z: 0.0294366808571
  orientation: 
    x: -0.493188734799
    y: -0.5017843883
    z: 0.506675510739
    w: -0.498254178451
twist: 
  linear: 
    x: -0.00112646056884
    y: -0.000433518064772
    z: -0.00299405044129
  angular: 
    x: -0.00329714659793
    y: 0.00876029744585
    z: -1.69936820312e-05
---
header: 
  seq: 406
  stamp: 
    secs: 3
    nsecs: 609000000
  frame_id: ''
child_frame_id: ''
pose: 
  position: 
    x: 0.334268366217
    y: 0.241098528983
    z: 0.0294127003323
  orientation: 
    x: -0.493164412932
    y: -0.501795148159
    z: 0.506699464982
    w: -0.498243056438
twist: 
  linear: 
    x: -0.0011288299296
    y: -0.000433392175903
    z: -0.00299825640566
  angular: 
    x: -0.00330133894551
    y: 0.0087718429238
    z: -1.46572391829e-05
---
header: 
  seq: 407
  stamp: 
    secs: 3
    nsecs: 617000000
  frame_id: ''
child_frame_id: ''
pose: 
  position: 
    x: 0.334259338018
    y: 0.24109506305
    z: 0.0293887234467
  orientation: 
    x: -0.493140091499
    y: -0.501805907021
    z: 0.506723416013
    w: -0.498231935448
twist: 
  linear: 
    x: -0.00112884537832
    y: -0.000432515047156
    z: -0.00299636317994
  angular: 
    x: -0.00329973127598
    y: 0.00876839364146
    z: -1.24093151978e-05
---
header: 
  seq: 408
  stamp: 
    secs: 3
    nsecs: 625000000
  frame_id: ''
child_frame_id: ''
pose: 
  position: 
    x: 0.334250309426
    y: 0.241091595969
    z: 0.0293647483259
  orientation: 
    x: -0.493115771881
    y: -0.501816663783
    z: 0.506747365127
    w: -0.498220813906
twist: 
  linear: 
    x: -0.00112915357758
    y: -0.000433497952784
    z: -0.00299799339387
  angular: 
    x: -0.00330125564915
    y: 0.00877157279512
    z: -1.46206325484e-05
---
header: 
  seq: 409
  stamp: 
    secs: 3
    nsecs: 633000000
  frame_id: ''
child_frame_id: ''
pose: 
  position: 
    x: 0.334241278251
    y: 0.241088129191
    z: 0.0293407727403
  orientation: 
    x: -0.493091448961
    y: -0.50182742134
    z: 0.506771314521
    w: -0.498209691728
twist: 
  linear: 
    x: -0.00112926481164
    y: -0.000432564727317
    z: -0.0029962140979
  angular: 
    x: -0.00329983953279
    y: 0.0087684917524
    z: -1.21590773482e-05
---
header: 
  seq: 410
  stamp: 
    secs: 3
    nsecs: 641000000
  frame_id: ''
child_frame_id: ''
pose: 
  position: 
    x: 0.334232247179
    y: 0.241084661169
    z: 0.0293167998047
  orientation: 
    x: -0.493067128948
    y: -0.501838176261
    z: 0.506795261264
    w: -0.498198569205
twist: 
  linear: 
    x: -0.00112947447778
    y: -0.00043400124574
    z: -0.00299833864286
  angular: 
    x: -0.00330081362782
    y: 0.00877198775044
    z: -1.55100843934e-05
---
header: 
  seq: 411
  stamp: 
    secs: 3
    nsecs: 649000000
  frame_id: ''
child_frame_id: ''
pose: 
  position: 
    x: 0.334223213017
    y: 0.241081192861
    z: 0.029292824408
  orientation: 
    x: -0.493042804284
    y: -0.501848932242
    z: 0.506819210141
    w: -0.498187445229
twist: 
  linear: 
    x: -0.00112949533054
    y: -0.000433656067566
    z: -0.00299729857954
  angular: 
    x: -0.00330064597548
    y: 0.00877009872032
    z: -1.4682362985e-05
---
header: 
  seq: 412
  stamp: 
    secs: 3
    nsecs: 657000000
  frame_id: ''
child_frame_id: ''
pose: 
  position: 
    x: 0.334214179033
    y: 0.241077724889
    z: 0.0292688543064
  orientation: 
    x: -0.493018483079
    y: -0.501859686085
    z: 0.506843153849
    w: -0.498176322422
twist: 
  linear: 
    x: -0.00112978496921
    y: -0.000434108446462
    z: -0.00299805058047
  angular: 
    x: -0.00330069411299
    y: 0.00877163658519
    z: -1.54884856369e-05
---
header: 
  seq: 413
  stamp: 
    secs: 3
    nsecs: 665000000
  frame_id: ''
child_frame_id: ''
pose: 
  position: 
    x: 0.334205141983
    y: 0.241074255691
    z: 0.0292448803253
  orientation: 
    x: -0.492994157118
    y: -0.501870440672
    z: 0.506867100996
    w: -0.498165197254
twist: 
  linear: 
    x: -0.00112992882876
    y: -0.000433689670941
    z: -0.00299715312045
  angular: 
    x: -0.00330086894403
    y: 0.00877034038399
    z: -1.43839751676e-05
---
header: 
  seq: 414
  stamp: 
    secs: 3
    nsecs: 673000000
  frame_id: ''
child_frame_id: ''
pose: 
  position: 
    x: 0.334196105506
    y: 0.241070787116
    z: 0.0292209129062
  orientation: 
    x: -0.492969835226
    y: -0.50188119268
    z: 0.506891042159
    w: -0.498154073927
twist: 
  linear: 
    x: -0.00112813454445
    y: -0.000434000066414
    z: -0.00299333569753
  angular: 
    x: -0.00329713178906
    y: 0.0087602102572
    z: -1.66504779332e-05
---
header: 
  seq: 415
  stamp: 
    secs: 3
    nsecs: 681000000
  frame_id: ''
child_frame_id: ''
pose: 
  position: 
    x: 0.334187065402
    y: 0.241067316946
    z: 0.0291969398561
  orientation: 
    x: -0.492945507778
    y: -0.501891946063
    z: 0.506914987822
    w: -0.498142947316
twist: 
  linear: 
    x: -0.00113026139454
    y: -0.00043379253694
    z: -0.00299690448677
  angular: 
    x: -0.0033008028071
    y: 0.0087701102421
    z: -1.43326362474e-05
---
header: 
  seq: 416
  stamp: 
    secs: 3
    nsecs: 689000000
  frame_id: ''
child_frame_id: ''
pose: 
  position: 
    x: 0.334178025997
    y: 0.241063847567
    z: 0.0291729738969
  orientation: 
    x: -0.492921184512
    y: -0.501902696714
    z: 0.506938927207
    w: -0.498131822887
twist: 
  linear: 
    x: -0.00112840910112
    y: -0.000434078441378
    z: -0.00299293036662
  angular: 
    x: -0.00329695367297
    y: 0.00875959330281
    z: -1.65930770034e-05
---
header: 
  seq: 417
  stamp: 
    secs: 3
    nsecs: 697000000
  frame_id: ''
child_frame_id: ''
pose: 
  position: 
    x: 0.334168983146
    y: 0.241060376412
    z: 0.029149002406
  orientation: 
    x: -0.492896856099
    y: -0.501913448553
    z: 0.506962871
    w: -0.498120695049
twist: 
  linear: 
    x: -0.00113077777278
    y: -0.000433952378947
    z: -0.00299712596019
  angular: 
    x: -0.0033011373524
    y: 0.00877111381348
    z: -1.42563237119e-05
---
header: 
  seq: 418
  stamp: 
    secs: 3
    nsecs: 705000000
  frame_id: ''
child_frame_id: ''
pose: 
  position: 
    x: 0.334159939375
    y: 0.241056905991
    z: 0.029125034561
  orientation: 
    x: -0.492872528122
    y: -0.501924199397
    z: 0.506986811569
    w: -0.498109568245
twist: 
  linear: 
    x: -0.00113079031022
    y: -0.000433072933765
    z: -0.00299522697139
  angular: 
    x: -0.00329952388081
    y: 0.00876764986014
    z: -1.20053436724e-05
---
header: 
  seq: 419
  stamp: 
    secs: 3
    nsecs: 713000000
  frame_id: ''
child_frame_id: ''
pose: 
  position: 
    x: 0.334150895222
    y: 0.241053434402
    z: 0.0291010684694
  orientation: 
    x: -0.492848201965
    y: -0.501934948134
    z: 0.507010750246
    w: -0.498098440869
twist: 
  linear: 
    x: -0.00113110113714
    y: -0.000434058058981
    z: -0.00299686257177
  angular: 
    x: -0.0033010538961
    y: 0.00877084316562
    z: -1.42196751187e-05
---
header: 
  seq: 420
  stamp: 
    secs: 3
    nsecs: 721000000
  frame_id: ''
child_frame_id: ''
pose: 
  position: 
    x: 0.334141848478
    y: 0.241049963137
    z: 0.029077101929
  orientation: 
    x: -0.492823872504
    y: -0.501945697673
    z: 0.507034689176
    w: -0.498087312878
twist: 
  linear: 
    x: -0.00113120942104
    y: -0.000433122542637
    z: -0.00299507722725
  angular: 
    x: -0.00329963170229
    y: 0.00876774669886
    z: -1.17550568246e-05
---
header: 
  seq: 421
  stamp: 
    secs: 3
    nsecs: 729000000
  frame_id: ''
child_frame_id: ''
pose: 
  position: 
    x: 0.334132801845
    y: 0.24104649061
    z: 0.0290531380247
  orientation: 
    x: -0.492799545952
    y: -0.501956444569
    z: 0.507058625481
    w: -0.498076184525
twist: 
  linear: 
    x: -0.00113142242799
    y: -0.000434561373025
    z: -0.00299720791491
  angular: 
    x: -0.00330061239904
    y: 0.00877125987992
    z: -1.51095480403e-05
---
header: 
  seq: 422
  stamp: 
    secs: 3
    nsecs: 737000000
  frame_id: ''
child_frame_id: ''
pose: 
  position: 
    x: 0.334123752116
    y: 0.241043017809
    z: 0.0290291716708
  orientation: 
    x: -0.492775214748
    y: -0.501967192529
    z: 0.507082563899
    w: -0.498065054731
twist: 
  linear: 
    x: -0.00113144263587
    y: -0.000434216162431
    z: -0.00299616837466
  angular: 
    x: -0.00330044516795
    y: 0.00876937170751
    z: -1.42816231371e-05
---
header: 
  seq: 423
  stamp: 
    secs: 3
    nsecs: 745000000
  frame_id: ''
child_frame_id: ''
pose: 
  position: 
    x: 0.334114702574
    y: 0.241039545337
    z: 0.0290052106116
  orientation: 
    x: -0.49275088701
    y: -0.501977938347
    z: 0.507106497156
    w: -0.498053926102
twist: 
  linear: 
    x: -0.00113173265197
    y: -0.000434668486722
    z: -0.00299691957614
  angular: 
    x: -0.00330049282316
    y: 0.00877090847127
    z: -1.5087924933e-05
---
header: 
  seq: 424
  stamp: 
    secs: 3
    nsecs: 753000000
  frame_id: ''
child_frame_id: ''
pose: 
  position: 
    x: 0.33410564996
    y: 0.241036071648
    z: 0.0289812456775
  orientation: 
    x: -0.492726554513
    y: -0.501988684912
    z: 0.507130433842
    w: -0.498042795118
twist: 
  linear: 
    x: -0.00113187573048
    y: -0.000434249632945
    z: -0.00299602197347
  angular: 
    x: -0.00330066738858
    y: 0.00876961119322
    z: -1.39830457939e-05
---
header: 
  seq: 425
  stamp: 
    secs: 3
    nsecs: 761000000
  frame_id: ''
child_frame_id: ''
pose: 
  position: 
    x: 0.334096597925
    y: 0.241032598578
    z: 0.0289572873036
  orientation: 
    x: -0.492702226088
    y: -0.501999428897
    z: 0.507154364551
    w: -0.498031665973
twist: 
  linear: 
    x: -0.00113008182579
    y: -0.000434560022506
    z: -0.00299221304938
  angular: 
    x: -0.00329693743135
    y: 0.00875950181808
    z: -1.62497163011e-05
---
header: 
  seq: 426
  stamp: 
    secs: 3
    nsecs: 769000000
  frame_id: ''
child_frame_id: ''
pose: 
  position: 
    x: 0.33408754226
    y: 0.241029123914
    z: 0.0289333233048
  orientation: 
    x: -0.492677892109
    y: -0.502010174255
    z: 0.507178299752
    w: -0.498020533545
twist: 
  linear: 
    x: -0.00113220801147
    y: -0.000434352400767
    z: -0.00299577292956
  angular: 
    x: -0.00330060106083
    y: 0.00876938044749
    z: -1.39316575829e-05
---
header: 
  seq: 427
  stamp: 
    secs: 3
    nsecs: 777000000
  frame_id: ''
child_frame_id: ''
pose: 
  position: 
    x: 0.3340784873
    y: 0.241025650041
    z: 0.0289093663948
  orientation: 
    x: -0.492653562314
    y: -0.502020916882
    z: 0.507202228681
    w: -0.498009403299
twist: 
  linear: 
    x: -0.00113035610914
    y: -0.000434638322058
    z: -0.00299180767528
  angular: 
    x: -0.00329675943385
    y: 0.00875888513461
    z: -1.6192278446e-05
---
header: 
  seq: 428
  stamp: 
    secs: 3
    nsecs: 785000000
  frame_id: ''
child_frame_id: ''
pose: 
  position: 
    x: 0.334069428889
    y: 0.241022174393
    z: 0.0288854039588
  orientation: 
    x: -0.492629227372
    y: -0.502031660696
    z: 0.507226162009
    w: -0.497998269648
twist: 
  linear: 
    x: -0.00113272407975
    y: -0.000434512082722
    z: -0.00299599290505
  angular: 
    x: -0.00330093444931
    y: 0.00877038068787
    z: -1.38552148978e-05
---
header: 
  seq: 429
  stamp: 
    secs: 3
    nsecs: 793000000
  frame_id: ''
child_frame_id: ''
pose: 
  position: 
    x: 0.334060369558
    y: 0.24101869949
    z: 0.0288614451754
  orientation: 
    x: -0.492604892866
    y: -0.502042403519
    z: 0.507250092102
    w: -0.497987137038
twist: 
  linear: 
    x: -0.0011327337
    y: -0.000433630320604
    z: -0.00299408816507
  angular: 
    x: -0.00329931518125
    y: 0.00876690208086
    z: -1.16011807959e-05
---
header: 
  seq: 430
  stamp: 
    secs: 3
    nsecs: 801000000
  frame_id: ''
child_frame_id: ''
pose: 
  position: 
    x: 0.334051309855
    y: 0.241015223398
    z: 0.0288374881339
  orientation: 
    x: -0.492580560185
    y: -0.502053144226
    z: 0.507274020329
    w: -0.49797600384
twist: 
  linear: 
    x: -0.00113304715983
    y: -0.000434617665767
    z: -0.0029957291405
  angular: 
    x: -0.0033008508331
    y: 0.00877010952094
    z: -1.38185244531e-05
---
header: 
  seq: 431
  stamp: 
    secs: 3
    nsecs: 809000000
  frame_id: ''
child_frame_id: ''
pose: 
  position: 
    x: 0.334042247553
    y: 0.241011747652
    z: 0.0288135306596
  orientation: 
    x: -0.492556224199
    y: -0.502063885743
    z: 0.50729794878
    w: -0.497964870046
twist: 
  linear: 
    x: -0.0011331524873
    y: -0.00043367985809
    z: -0.00299393775969
  angular: 
    x: -0.00329942256758
    y: 0.00876699764811
    z: -1.13508453775e-05
---
header: 
  seq: 432
  stamp: 
    secs: 3
    nsecs: 817000000
  frame_id: ''
child_frame_id: ''
pose: 
  position: 
    x: 0.334033185371
    y: 0.241008270624
    z: 0.0287895758075
  orientation: 
    x: -0.492531891123
    y: -0.50207462461
    z: 0.507321874632
    w: -0.497953735873
twist: 
  linear: 
    x: -0.00113336884127
    y: -0.000435120999974
    z: -0.00299607457599
  angular: 
    x: -0.0033004098594
    y: 0.00877052799035
    z: -1.47088168519e-05
---
header: 
  seq: 433
  stamp: 
    secs: 3
    nsecs: 825000000
  frame_id: ''
child_frame_id: ''
pose: 
  position: 
    x: 0.334024120086
    y: 0.241004793337
    z: 0.0287656185173
  orientation: 
    x: -0.492507553396
    y: -0.502085364545
    z: 0.507345802578
    w: -0.497942600271
twist: 
  linear: 
    x: -0.00113338840468
    y: -0.000434775758065
    z: -0.00299503556033
  angular: 
    x: -0.00330024305009
    y: 0.0087686406783
    z: -1.38806902359e-05
---
header: 
  seq: 434
  stamp: 
    secs: 3
    nsecs: 833000000
  frame_id: ''
child_frame_id: ''
pose: 
  position: 
    x: 0.334015054998
    y: 0.24100131637
    z: 0.0287416665214
  orientation: 
    x: -0.492483219141
    y: -0.502096102334
    z: 0.507369725371
    w: -0.497931465829
twist: 
  linear: 
    x: -0.00113367879725
    y: -0.000435228026524
    z: -0.00299578596122
  angular: 
    x: -0.00330029022247
    y: 0.00877017633823
    z: -1.46871694677e-05
---
header: 
  seq: 435
  stamp: 
    secs: 3
    nsecs: 841000000
  frame_id: ''
child_frame_id: ''
pose: 
  position: 
    x: 0.33400598683
    y: 0.240997838195
    z: 0.0287177106552
  orientation: 
    x: -0.492458880123
    y: -0.502106840874
    z: 0.507393651582
    w: -0.497920329039
twist: 
  linear: 
    x: -0.00113382109437
    y: -0.000434809095623
    z: -0.00299488821837
  angular: 
    x: -0.00330046452322
    y: 0.0087688779876
    z: -1.35819239616e-05
---
header: 
  seq: 436
  stamp: 
    secs: 3
    nsecs: 849000000
  frame_id: ''
child_frame_id: ''
pose: 
  position: 
    x: 0.333996919249
    y: 0.240994360635
    z: 0.0286937613474
  orientation: 
    x: -0.492434545181
    y: -0.50211757683
    z: 0.507417571823
    w: -0.497909194086
twist: 
  linear: 
    x: -0.00113202757894
    y: -0.000435119481847
    z: -0.00299108778755
  angular: 
    x: -0.00329674176022
    y: 0.00875878935574
    z: -1.58487618779e-05
---
header: 
  seq: 437
  stamp: 
    secs: 3
    nsecs: 857000000
  frame_id: ''
child_frame_id: ''
pose: 
  position: 
    x: 0.333987848034
    y: 0.240990881483
    z: 0.0286698064207
  orientation: 
    x: -0.492410204686
    y: -0.50212831416
    z: 0.507441496548
    w: -0.497898055852
twist: 
  linear: 
    x: -0.00113415308986
    y: -0.000434911765138
    z: -0.00299463876476
  angular: 
    x: -0.0033003980047
    y: 0.0087686466382
    z: -1.35304866259e-05
---
header: 
  seq: 438
  stamp: 
    secs: 3
    nsecs: 865000000
  frame_id: ''
child_frame_id: ''
pose: 
  position: 
    x: 0.33397877753
    y: 0.240987403121
    z: 0.028645858581
  orientation: 
    x: -0.492385868377
    y: -0.502139048758
    z: 0.507465415006
    w: -0.4978869198
twist: 
  linear: 
    x: -0.00113230158861
    y: -0.000435197706002
    z: -0.00299068237039
  angular: 
    x: -0.00329656388102
    y: 0.00875817294251
    z: -1.57912873765e-05
---
header: 
  seq: 439
  stamp: 
    secs: 3
    nsecs: 873000000
  frame_id: ''
child_frame_id: ''
pose: 
  position: 
    x: 0.333969703572
    y: 0.240983922986
    z: 0.0286219052207
  orientation: 
    x: -0.492361526922
    y: -0.502149784544
    z: 0.507489337855
    w: -0.497875780344
twist: 
  linear: 
    x: -0.00113466884626
    y: -0.000435071286388
    z: -0.00299485724341
  angular: 
    x: -0.00330073023674
    y: 0.00876964354841
    z: -1.34539136323e-05
---
header: 
  seq: 440
  stamp: 
    secs: 3
    nsecs: 881000000
  frame_id: ''
child_frame_id: ''
pose: 
  position: 
    x: 0.333960628693
    y: 0.240980443605
    z: 0.0285979555197
  orientation: 
    x: -0.492337185904
    y: -0.502160519341
    z: 0.50751325746
    w: -0.49786464194
twist: 
  linear: 
    x: -0.00113467554336
    y: -0.000434187206884
    z: -0.00299294676411
  angular: 
    x: -0.00329910517772
    y: 0.00876615030488
    z: -1.11968276171e-05
---
header: 
  seq: 441
  stamp: 
    secs: 3
    nsecs: 889000000
  frame_id: ''
child_frame_id: ''
pose: 
  position: 
    x: 0.333951553451
    y: 0.240976963016
    z: 0.0285740075492
  orientation: 
    x: -0.492312846714
    y: -0.502171252014
    z: 0.507537175221
    w: -0.497853502929
twist: 
  linear: 
    x: -0.0011349916414
    y: -0.000435176772334
    z: -0.00299459310327
  angular: 
    x: -0.0033006464607
    y: 0.00876937186261
    z: -1.34171815264e-05
---
header: 
  seq: 442
  stamp: 
    secs: 3
    nsecs: 897000000
  frame_id: ''
child_frame_id: ''
pose: 
  position: 
    x: 0.333942475602
    y: 0.240973482793
    z: 0.0285500591619
  orientation: 
    x: -0.492288504219
    y: -0.502181985504
    z: 0.50756109318
    w: -0.497842363343
twist: 
  linear: 
    x: -0.00113509400618
    y: -0.000434236672879
    z: -0.00299279569838
  angular: 
    x: -0.00329921212914
    y: 0.00876624460154
    z: -1.09464440104e-05
---
header: 
  seq: 443
  stamp: 
    secs: 3
    nsecs: 905000000
  frame_id: ''
child_frame_id: ''
pose: 
  position: 
    x: 0.331595243113
    y: 0.24138231459
    z: 0.0283269652123
  orientation: 
    x: -0.492264120696
    y: -0.502192736599
    z: 0.507584826012
    w: -0.4978314325
twist: 
  linear: 
    x: -0.00112757069872
    y: -0.000436730304702
    z: -0.00296077577867
  angular: 
    x: -0.00330271433787
    y: 0.00869336614355
    z: -1.43367119491e-05
---
header: 
  seq: 444
  stamp: 
    secs: 3
    nsecs: 913000000
  frame_id: ''
child_frame_id: ''
pose: 
  position: 
    x: 0.328930640748
    y: 0.24184699227
    z: 0.0280772555426
  orientation: 
    x: -0.492240002251
    y: -0.502203192618
    z: 0.507608531467
    w: -0.497820562342
twist: 
  linear: 
    x: -0.00111910707491
    y: -0.00043766016348
    z: -0.00292216252793
  angular: 
    x: -0.00330621066068
    y: 0.00860762466657
    z: -1.35006018304e-05
---
header: 
  seq: 445
  stamp: 
    secs: 3
    nsecs: 921000000
  frame_id: ''
child_frame_id: ''
pose: 
  position: 
    x: 0.326287131491
    y: 0.242308011839
    z: 0.0278298094868
  orientation: 
    x: -0.492216042079
    y: -0.50221345729
    z: 0.507632077914
    w: -0.497809888119
twist: 
  linear: 
    x: -0.00111102116033
    y: -0.000439375164477
    z: -0.00288614074779
  angular: 
    x: -0.00330996266271
    y: 0.00852663978024
    z: -1.42819943416e-05
---
header: 
  seq: 446
  stamp: 
    secs: 3
    nsecs: 929000000
  frame_id: ''
child_frame_id: ''
pose: 
  position: 
    x: 0.323664883568
    y: 0.242765331341
    z: 0.0275846217785
  orientation: 
    x: -0.492192210954
    y: -0.502223500844
    z: 0.50765549636
    w: -0.497799437215
twist: 
  linear: 
    x: -0.00110283125612
    y: -0.000440202094216
    z: -0.00284917220918
  angular: 
    x: -0.00331371798651
    y: 0.00844377544945
    z: -1.31513998024e-05
---
header: 
  seq: 447
  stamp: 
    secs: 3
    nsecs: 937000000
  frame_id: ''
child_frame_id: ''
pose: 
  position: 
    x: 0.321063761877
    y: 0.243218896371
    z: 0.0273416784789
  orientation: 
    x: -0.492168352941
    y: -0.502232968283
    z: 0.507678936887
    w: -0.497789568969
twist: 
  linear: 
    x: -0.00109283516451
    y: -0.000441790268413
    z: -0.00281040148822
  angular: 
    x: -0.00331367180821
    y: 0.00835424207745
    z: -1.55929022151e-05
---
header: 
  seq: 448
  stamp: 
    secs: 3
    nsecs: 945000000
  frame_id: ''
child_frame_id: ''
pose: 
  position: 
    x: 0.318478191407
    y: 0.243670147784
    z: 0.027100458031
  orientation: 
    x: -0.492145438297
    y: -0.502244004585
    z: 0.507701471971
    w: -0.497778105967
twist: 
  linear: 
    x: -0.00108674580724
    y: -0.00044275849201
    z: -0.00277892998191
  angular: 
    x: -0.00332079117656
    y: 0.00828383303329
    z: -1.30364326194e-05
---
header: 
  seq: 449
  stamp: 
    secs: 3
    nsecs: 953000000
  frame_id: ''
child_frame_id: ''
pose: 
  position: 
    x: 0.315913579657
    y: 0.244117412396
    z: 0.0268614338112
  orientation: 
    x: -0.492121954246
    y: -0.502253312316
    z: 0.507724548264
    w: -0.497768395448
twist: 
  linear: 
    x: -0.00107684077941
    y: -0.000444319253955
    z: -0.00274148931116
  angular: 
    x: -0.00332060140941
    y: 0.00819633043427
    z: -1.55626372179e-05
---
header: 
  seq: 450
  stamp: 
    secs: 3
    nsecs: 961000000
  frame_id: ''
child_frame_id: ''
pose: 
  position: 
    x: 0.313374798776
    y: 0.244560284076
    z: 0.0266252617036
  orientation: 
    x: -0.492098906234
    y: -0.502262638687
    z: 0.507747200677
    w: -0.497758664884
twist: 
  linear: 
    x: -0.00107115795411
    y: -0.000445301995071
    z: -0.0027119132322
  angular: 
    x: -0.00332813048879
    y: 0.00812941045931
    z: -1.28211938144e-05
---
header: 
  seq: 451
  stamp: 
    secs: 3
    nsecs: 969000000
  frame_id: ''
child_frame_id: ''
pose: 
  position: 
    x: 0.310853792507
    y: 0.245000024653
    z: 0.0263906766374
  orientation: 
    x: -0.492075745248
    y: -0.502271966037
    z: 0.507769962977
    w: -0.497748930457
twist: 
  linear: 
    x: -0.0010631264212
    y: -0.000445577732113
    z: -0.00267724041537
  angular: 
    x: -0.00332965130714
    y: 0.00804919069069
    z: -1.05271819597e-05
---
header: 
  seq: 452
  stamp: 
    secs: 3
    nsecs: 977000000
  frame_id: ''
child_frame_id: ''
pose: 
  position: 
    x: 0.308355631133
    y: 0.24543582417
    z: 0.0261585822669
  orientation: 
    x: -0.492052849398
    y: -0.502281102094
    z: 0.507792468671
    w: -0.497739386265
twist: 
  linear: 
    x: -0.00105568988869
    y: -0.000447755390476
    z: -0.00264716638109
  angular: 
    x: -0.00333492659478
    y: 0.00797815835267
    z: -1.26805763015e-05
---
header: 
  seq: 453
  stamp: 
    secs: 3
    nsecs: 985000000
  frame_id: ''
child_frame_id: ''
pose: 
  position: 
    x: 0.305877556227
    y: 0.245868140659
    z: 0.0259285965878
  orientation: 
    x: -0.492030102942
    y: -0.502290089011
    z: 0.507814825521
    w: -0.497729994336
twist: 
  linear: 
    x: -0.00104788161221
    y: -0.000447949648528
    z: -0.0026138699554
  angular: 
    x: -0.00333649222958
    y: 0.00790023187014
    z: -1.01757158912e-05
---
header: 
  seq: 454
  stamp: 
    secs: 3
    nsecs: 993000000
  frame_id: ''
child_frame_id: ''
pose: 
  position: 
    x: 0.303419405196
    y: 0.246296997581
    z: 0.0257006938867
  orientation: 
    x: -0.492007504245
    y: -0.502298923718
    z: 0.507837041095
    w: -0.497720751718
twist: 
  linear: 
    x: -0.00104057957078
    y: -0.000450588975758
    z: -0.00258572913688
  angular: 
    x: -0.00334142079477
    y: 0.00783225981665
    z: -1.35233016031e-05
---
header: 
  seq: 455
  stamp: 
    secs: 4
    nsecs:   1000000
  frame_id: ''
child_frame_id: ''
pose: 
  position: 
    x: 0.300978558028
    y: 0.246722849174
    z: 0.0254746250726
  orientation: 
    x: -0.491985046988
    y: -0.502307606458
    z: 0.507859121266
    w: -0.497711658475
twist: 
  linear: 
    x: -0.00103221683422
    y: -0.000451698303619
    z: -0.00255382821849
  angular: 
    x: -0.00334459686533
    y: 0.0077563580366
    z: -1.42639433544e-05
---
header: 
  seq: 456
  stamp: 
    secs: 4
    nsecs:   9000000
  frame_id: ''
child_frame_id: ''
pose: 
  position: 
    x: 0.298559789188
    y: 0.2471448649
    z: 0.0252508206968
  orientation: 
    x: -0.491962728566
    y: -0.502316139383
    z: 0.50788106988
    w: -0.497702711138
twist: 
  linear: 
    x: -0.00102484321123
    y: -0.000453170900218
    z: -0.00252476749265
  angular: 
    x: -0.00334808613664
    y: 0.0076864232091
    z: -1.49184398559e-05
---
header: 
  seq: 457
  stamp: 
    secs: 4
    nsecs:  17000000
  frame_id: ''
child_frame_id: ''
pose: 
  position: 
    x: 0.296158045507
    y: 0.247563926445
    z: 0.0250288131793
  orientation: 
    x: -0.491940546349
    y: -0.502324527122
    z: 0.507902881642
    w: -0.497693913094
twist: 
  linear: 
    x: -0.00101750725163
    y: -0.00045421309456
    z: -0.00249559525031
  angular: 
    x: -0.00335109808372
    y: 0.00761584120371
    z: -1.45646170494e-05
---
header: 
  seq: 458
  stamp: 
    secs: 4
    nsecs:  25000000
  frame_id: ''
child_frame_id: ''
pose: 
  position: 
    x: 0.293778024056
    y: 0.247979213331
    z: 0.024809022942
  orientation: 
    x: -0.491918497084
    y: -0.502332769899
    z: 0.507924566427
    w: -0.497685257299
twist: 
  linear: 
    x: -0.0010103866824
    y: -0.000455464640435
    z: -0.00246757488061
  angular: 
    x: -0.00335473948113
    y: 0.00754765156168
    z: -1.45975779485e-05
---
header: 
  seq: 459
  stamp: 
    secs: 4
    nsecs:  33000000
  frame_id: ''
child_frame_id: ''
pose: 
  position: 
    x: 0.29140523217
    y: 0.248393246345
    z: 0.0245901183051
  orientation: 
    x: -0.491896580745
    y: -0.502340870483
    z: 0.507946117535
    w: -0.497676747876
twist: 
  linear: 
    x: -0.00100322166826
    y: -0.00045648159776
    z: -0.00243950139078
  angular: 
    x: -0.0033578136138
    y: 0.0074788611077
    z: -1.41514894965e-05
---
header: 
  seq: 460
  stamp: 
    secs: 4
    nsecs:  41000000
  frame_id: ''
child_frame_id: ''
pose: 
  position: 
    x: 0.289063402176
    y: 0.248801901661
    z: 0.0243742708762
  orientation: 
    x: -0.491874795195
    y: -0.502348829584
    z: 0.507967541521
    w: -0.497668379575
twist: 
  linear: 
    x: -0.000995162964801
    y: -0.000457586948012
    z: -0.00241054454224
  angular: 
    x: -0.00335879822557
    y: 0.0074069521135
    z: -1.50195589986e-05
---
header: 
  seq: 461
  stamp: 
    secs: 4
    nsecs:  49000000
  frame_id: ''
child_frame_id: ''
pose: 
  position: 
    x: 0.286738062552
    y: 0.249207690637
    z: 0.0241601413316
  orientation: 
    x: -0.491853134817
    y: -0.502356650293
    z: 0.507988844025
    w: -0.497660149121
twist: 
  linear: 
    x: -0.000989285951444
    y: -0.00045872889402
    z: -0.0023857947887
  angular: 
    x: -0.00336456080388
    y: 0.00734608596536
    z: -1.37381856987e-05
---
header: 
  seq: 462
  stamp: 
    secs: 4
    nsecs:  57000000
  frame_id: ''
child_frame_id: ''
pose: 
  position: 
    x: 0.284433751475
    y: 0.249609827613
    z: 0.0239481457984
  orientation: 
    x: -0.491831601835
    y: -0.502364334007
    z: 0.508010020323
    w: -0.497652057773
twist: 
  linear: 
    x: -0.000982623285682
    y: -0.000459783027274
    z: -0.00235998826857
  angular: 
    x: -0.00336837672686
    y: 0.0072818533088
    z: -1.31440039845e-05
---
header: 
  seq: 463
  stamp: 
    secs: 4
    nsecs:  65000000
  frame_id: ''
child_frame_id: ''
pose: 
  position: 
    x: 0.282147961782
    y: 0.250008745243
    z: 0.0237380447646
  orientation: 
    x: -0.491810192142
    y: -0.502371881945
    z: 0.508031077612
    w: -0.497644101057
twist: 
  linear: 
    x: -0.000975585911152
    y: -0.000461007843095
    z: -0.0023342151414
  angular: 
    x: -0.00337118070895
    y: 0.00721694407683
    z: -1.35420459613e-05
---
header: 
  seq: 464
  stamp: 
    secs: 4
    nsecs:  73000000
  frame_id: ''
child_frame_id: ''
pose: 
  position: 
    x: 0.279878254839
    y: 0.250404869722
    z: 0.0235296131312
  orientation: 
    x: -0.49178890506
    y: -0.502379297141
    z: 0.508052012116
    w: -0.497636280479
twist: 
  linear: 
    x: -0.000968792201956
    y: -0.000462003801881
    z: -0.00230890241579
  angular: 
    x: -0.00337422198967
    y: 0.00715302761685
    z: -1.31586398886e-05
---
header: 
  seq: 465
  stamp: 
    secs: 4
    nsecs:  81000000
  frame_id: ''
child_frame_id: ''
pose: 
  position: 
    x: 0.277619991022
    y: 0.25079900447
    z: 0.0233224190656
  orientation: 
    x: -0.491767737818
    y: -0.502386580387
    z: 0.508072829735
    w: -0.497628591998
twist: 
  linear: 
    x: -0.000962920020518
    y: -0.000461311618161
    z: -0.00228291335834
  angular: 
    x: -0.00337627498768
    y: 0.00708761724545
    z: -7.3699749337e-06
---
header: 
  seq: 466
  stamp: 
    secs: 4
    nsecs:  89000000
  frame_id: ''
child_frame_id: ''
pose: 
  position: 
    x: 0.275388948329
    y: 0.251188408036
    z: 0.0231178995596
  orientation: 
    x: -0.491746690347
    y: -0.502393732484
    z: 0.508093532196
    w: -0.497621033151
twist: 
  linear: 
    x: -0.000955597823917
    y: -0.00046427216167
    z: -0.0022604349113
  angular: 
    x: -0.00338100953033
    y: 0.0070293093775
    z: -1.28974628918e-05
---
header: 
  seq: 467
  stamp: 
    secs: 4
    nsecs:  97000000
  frame_id: ''
child_frame_id: ''
pose: 
  position: 
    x: 0.273173610323
    y: 0.251575083089
    z: 0.0229149983327
  orientation: 
    x: -0.491725758936
    y: -0.502400757325
    z: 0.508114118376
    w: -0.497613604864
twist: 
  linear: 
    x: -0.000949143096957
    y: -0.000465184209533
    z: -0.0022366949769
  angular: 
    x: -0.00338437967745
    y: 0.00696837692922
    z: -1.21895913068e-05
---
header: 
  seq: 468
  stamp: 
    secs: 4
    nsecs: 105000000
  frame_id: ''
child_frame_id: ''
pose: 
  position: 
    x: 0.270978302294
    y: 0.251958276255
    z: 0.0227141032694
  orientation: 
    x: -0.491704941963
    y: -0.502407655675
    z: 0.508134592781
    w: -0.497606303404
twist: 
  linear: 
    x: -0.000943408370833
    y: -0.000464599295619
    z: -0.0022122238314
  angular: 
    x: -0.00338612242948
    y: 0.00690549031237
    z: -6.79246925687e-06
---
header: 
  seq: 469
  stamp: 
    secs: 4
    nsecs: 113000000
  frame_id: ''
child_frame_id: ''
pose: 
  position: 
    x: 0.268798441435
    y: 0.25233878238
    z: 0.0225147912262
  orientation: 
    x: -0.49168423912
    y: -0.502414428053
    z: 0.508154957844
    w: -0.497599126109
twist: 
  linear: 
    x: -0.000936307438935
    y: -0.000467566358295
    z: -0.00219121221464
  angular: 
    x: -0.00339098758151
    y: 0.00684992395541
    z: -1.24039392102e-05
---
header: 
  seq: 470
  stamp: 
    secs: 4
    nsecs: 121000000
  frame_id: ''
child_frame_id: ''
pose: 
  position: 
    x: 0.266638287937
    y: 0.252715863811
    z: 0.0223174471835
  orientation: 
    x: -0.49166364708
    y: -0.502421078242
    z: 0.508175211818
    w: -0.497592074266
twist: 
  linear: 
    x: -0.000930073292994
    y: -0.000468488758487
    z: -0.00216891297801
  angular: 
    x: -0.00339439129203
    y: 0.00679160687325
    z: -1.17480401778e-05
---
header: 
  seq: 471
  stamp: 
    secs: 4
    nsecs: 129000000
  frame_id: ''
child_frame_id: ''
pose: 
  position: 
    x: 0.264486852299
    y: 0.253091428225
    z: 0.0221210665859
  orientation: 
    x: -0.491643166542
    y: -0.50242760576
    z: 0.508195357583
    w: -0.497585144767
twist: 
  linear: 
    x: -0.000922755113907
    y: -0.000469863573519
    z: -0.00214588348067
  angular: 
    x: -0.00339547235045
    y: 0.0067304448998
    z: -1.36280956531e-05
---
header: 
  seq: 472
  stamp: 
    secs: 4
    nsecs: 137000000
  frame_id: ''
child_frame_id: ''
pose: 
  position: 
    x: 0.262361333738
    y: 0.253462485401
    z: 0.0219272043126
  orientation: 
    x: -0.491622791081
    y: -0.502434013713
    z: 0.508215401556
    w: -0.497578334311
twist: 
  linear: 
    x: -0.000917668515016
    y: -0.000470876759968
    z: -0.00212612665139
  angular: 
    x: -0.00340114054794
    y: 0.00667805528123
    z: -1.19934418075e-05
---
header: 
  seq: 473
  stamp: 
    secs: 4
    nsecs: 145000000
  frame_id: ''
child_frame_id: ''
pose: 
  position: 
    x: 0.260248649663
    y: 0.253831311701
    z: 0.0217346729058
  orientation: 
    x: -0.491602523808
    y: -0.50244030324
    z: 0.508235337582
    w: -0.49757164499
twist: 
  linear: 
    x: -0.000911538718927
    y: -0.000471937067127
    z: -0.00210515080019
  angular: 
    x: -0.00340434949674
    y: 0.0066219781159
    z: -1.18265370857e-05
---
header: 
  seq: 474
  stamp: 
    secs: 4
    nsecs: 153000000
  frame_id: ''
child_frame_id: ''
pose: 
  position: 
    x: 0.258155073078
    y: 0.254196814735
    z: 0.0215440342361
  orientation: 
    x: -0.491582361185
    y: -0.502446475766
    z: 0.508255171517
    w: -0.497565072919
twist: 
  linear: 
    x: -0.000906029816807
    y: -0.000472696525674
    z: -0.00208498374827
  angular: 
    x: -0.00340852002403
    y: 0.00656779291501
    z: -1.0176340802e-05
---
header: 
  seq: 475
  stamp: 
    secs: 4
    nsecs: 161000000
  frame_id: ''
child_frame_id: ''
pose: 
  position: 
    x: 0.256080431686
    y: 0.254559024667
    z: 0.0213552694184
  orientation: 
    x: -0.491562302959
    y: -0.502452532287
    z: 0.508274903799
    w: -0.497558616925
twist: 
  linear: 
    x: -0.000898652494058
    y: -0.00047427079648
    z: -0.00206358644515
  angular: 
    x: -0.00340919535092
    y: 0.00650973247812
    z: -1.31517091473e-05
---
header: 
  seq: 476
  stamp: 
    secs: 4
    nsecs: 169000000
  frame_id: ''
child_frame_id: ''
pose: 
  position: 
    x: 0.254020383346
    y: 0.25491869394
    z: 0.0211679753769
  orientation: 
    x: -0.49154234328
    y: -0.502458475309
    z: 0.508294541013
    w: -0.497552273564
twist: 
  linear: 
    x: -0.000893830253053
    y: -0.000475257052467
    z: -0.002045361094
  angular: 
    x: -0.00341487863717
    y: 0.00646004893528
    z: -1.14114966446e-05
---
header: 
  seq: 477
  stamp: 
    secs: 4
    nsecs: 177000000
  frame_id: ''
child_frame_id: ''
pose: 
  position: 
    x: 0.251978957112
    y: 0.255275125612
    z: 0.0209825196395
  orientation: 
    x: -0.49152248527
    y: -0.502464306141
    z: 0.508314076653
    w: -0.497546045111
twist: 
  linear: 
    x: -0.000888031762895
    y: -0.000476321314051
    z: -0.00202613553594
  angular: 
    x: -0.00341825571075
    y: 0.00640733053812
    z: -1.12212541422e-05
---
header: 
  seq: 478
  stamp: 
    secs: 4
    nsecs: 185000000
  frame_id: ''
child_frame_id: ''
pose: 
  position: 
    x: 0.24995189049
    y: 0.255629058435
    z: 0.0207985089075
  orientation: 
    x: -0.491502725444
    y: -0.502470025977
    z: 0.508333516322
    w: -0.497539928106
twist: 
  linear: 
    x: -0.000882270377731
    y: -0.000477392001106
    z: -0.00200725697159
  angular: 
    x: -0.00342167337184
    y: 0.00635530239265
    z: -1.1078974543e-05
---
header: 
  seq: 479
  stamp: 
    secs: 4
    nsecs: 193000000
  frame_id: ''
child_frame_id: ''
pose: 
  position: 
    x: 0.247941119603
    y: 0.255980155538
    z: 0.0206161144008
  orientation: 
    x: -0.491483062545
    y: -0.502475636141
    z: 0.508352861515
    w: -0.49753392096
twist: 
  linear: 
    x: -0.000877110044208
    y: -0.000478198357021
    z: -0.00198911350614
  angular: 
    x: -0.00342594729159
    y: 0.00630488630203
    z: -9.51298170791e-06
---
header: 
  seq: 480
  stamp: 
    secs: 4
    nsecs: 201000000
  frame_id: ''
child_frame_id: ''
pose: 
  position: 
    x: 0.24594651757
    y: 0.256328438909
    z: 0.020435321229
  orientation: 
    x: -0.49146349564
    y: -0.502481137784
    z: 0.508372113339
    w: -0.49752802233
twist: 
  linear: 
    x: -0.000871474625411
    y: -0.000479790807225
    z: -0.00197169335211
  angular: 
    x: -0.00342937383616
    y: 0.00625570818931
    z: -1.07260451879e-05
---
header: 
  seq: 481
  stamp: 
    secs: 4
    nsecs: 209000000
  frame_id: ''
child_frame_id: ''
pose: 
  position: 
    x: 0.243969948156
    y: 0.256673584849
    z: 0.0202562938328
  orientation: 
    x: -0.491444022403
    y: -0.502486532688
    z: 0.508391272916
    w: -0.497522231599
twist: 
  linear: 
    x: -0.000864607250532
    y: -0.000480892035005
    z: -0.00195221992096
  angular: 
    x: -0.00343046841682
    y: 0.00620151456851
    z: -1.24857734774e-05
---
header: 
  seq: 482
  stamp: 
    secs: 4
    nsecs: 217000000
  frame_id: ''
child_frame_id: ''
pose: 
  position: 
    x: 0.242009256006
    y: 0.257015967089
    z: 0.0200788312736
  orientation: 
    x: -0.491424639163
    y: -0.502491823166
    z: 0.50841034361
    w: -0.497516546644
twist: 
  linear: 
    x: -0.000860883313741
    y: -0.000479934251431
    z: -0.00193427684607
  angular: 
    x: -0.00343416873385
    y: 0.00615136768718
    z: -4.54380805066e-06
---
header: 
  seq: 483
  stamp: 
    secs: 4
    nsecs: 225000000
  frame_id: ''
child_frame_id: ''
pose: 
  position: 
    x: 0.240064313387
    y: 0.257355608074
    z: 0.0199029211246
  orientation: 
    x: -0.491405348309
    y: -0.502497009076
    z: 0.508429324495
    w: -0.497510966228
twist: 
  linear: 
    x: -0.000855494781748
    y: -0.000481045289197
    z: -0.00191733980487
  angular: 
    x: -0.00343776828795
    y: 0.00610308972746
    z: -4.44800546425e-06
---
header: 
  seq: 484
  stamp: 
    secs: 4
    nsecs: 233000000
  frame_id: ''
child_frame_id: ''
pose: 
  position: 
    x: 0.238133047633
    y: 0.257692867801
    z: 0.0197283719025
  orientation: 
    x: -0.491386146907
    y: -0.502502092137
    z: 0.508448217968
    w: -0.497505489086
twist: 
  linear: 
    x: -0.000850177369644
    y: -0.000482154448213
    z: -0.00190074078464
  angular: 
    x: -0.00344141627649
    y: 0.00605546708616
    z: -4.32628161767e-06
---
header: 
  seq: 485
  stamp: 
    secs: 4
    nsecs: 241000000
  frame_id: ''
child_frame_id: ''
pose: 
  position: 
    x: 0.236219236573
    y: 0.258027089129
    z: 0.0195555202815
  orientation: 
    x: -0.491367033457
    y: -0.5025070737
    z: 0.508467025562
    w: -0.497500113798
twist: 
  linear: 
    x: -0.00084492863218
    y: -0.000483266190063
    z: -0.00188449898992
  angular: 
    x: -0.00344509125186
    y: 0.00600856785139
    z: -4.21318521339e-06
---
header: 
  seq: 486
  stamp: 
    secs: 4
    nsecs: 249000000
  frame_id: ''
child_frame_id: ''
pose: 
  position: 
    x: 0.234318884753
    y: 0.2583589666
    z: 0.019384002963
  orientation: 
    x: -0.491348006599
    y: -0.502511954951
    z: 0.508485748647
    w: -0.497494839135
twist: 
  linear: 
    x: -0.000839736998348
    y: -0.000484382762749
    z: -0.00186857429448
  angular: 
    x: -0.00344880080201
    y: 0.0059622858358
    z: -4.10861201336e-06
---
header: 
  seq: 487
  stamp: 
    secs: 4
    nsecs: 257000000
  frame_id: ''
child_frame_id: ''
pose: 
  position: 
    x: 0.232435707567
    y: 0.258687853904
    z: 0.0192141507662
  orientation: 
    x: -0.491329064903
    y: -0.502516737195
    z: 0.508504388651
    w: -0.497489663755
twist: 
  linear: 
    x: -0.000834612609565
    y: -0.000485501750132
    z: -0.00185299226089
  angular: 
    x: -0.00345253837434
    y: 0.00591670474898
    z: -4.01155656568e-06
---
header: 
  seq: 488
  stamp: 
    secs: 4
    nsecs: 265000000
  frame_id: ''
child_frame_id: ''
pose: 
  position: 
    x: 0.230562007129
    y: 0.259015089577
    z: 0.0190452683752
  orientation: 
    x: -0.491310207148
    y: -0.502521421452
    z: 0.508522946795
    w: -0.497484586613
twist: 
  linear: 
    x: -0.000829534284338
    y: -0.000486627600126
    z: -0.00183768413945
  angular: 
    x: -0.00345631947995
    y: 0.00587163174006
    z: -3.9211250355e-06
---
header: 
  seq: 489
  stamp: 
    secs: 4
    nsecs: 273000000
  frame_id: ''
child_frame_id: ''
pose: 
  position: 
    x: 0.228708999629
    y: 0.25933872274
    z: 0.018878361318
  orientation: 
    x: -0.491291433508
    y: -0.502526008459
    z: 0.50854142388
    w: -0.497479605997
twist: 
  linear: 
    x: -0.000822883253433
    y: -0.000489815761448
    z: -0.00182365838654
  angular: 
    x: -0.00346037020394
    y: 0.00582945968742
    z: -1.1776623706e-05
---
header: 
  seq: 490
  stamp: 
    secs: 4
    nsecs: 281000000
  frame_id: ''
child_frame_id: ''
pose: 
  position: 
    x: 0.226865318705
    y: 0.259660730184
    z: 0.018712403319
  orientation: 
    x: -0.491272738847
    y: -0.502530500933
    z: 0.508559822372
    w: -0.497474721736
twist: 
  linear: 
    x: -0.000819483266538
    y: -0.000490649603982
    z: -0.00181047371589
  angular: 
    x: -0.00346667920843
    y: 0.00578931781512
    z: -8.59133866531e-06
---
header: 
  seq: 491
  stamp: 
    secs: 4
    nsecs: 289000000
  frame_id: ''
child_frame_id: ''
pose: 
  position: 
    x: 0.225041997871
    y: 0.259979192769
    z: 0.0185483833606
  orientation: 
    x: -0.491254124391
    y: -0.502534898877
    z: 0.508578142672
    w: -0.497469932233
twist: 
  linear: 
    x: -0.000814328085627
    y: -0.000491641950817
    z: -0.00179562969102
  angular: 
    x: -0.0034704224446
    y: 0.00574526857515
    z: -8.5690507888e-06
---
header: 
  seq: 492
  stamp: 
    secs: 4
    nsecs: 297000000
  frame_id: ''
child_frame_id: ''
pose: 
  position: 
    x: 0.223226032039
    y: 0.260296372162
    z: 0.0183851314151
  orientation: 
    x: -0.491235588931
    y: -0.502539203331
    z: 0.508596386253
    w: -0.497465236146
twist: 
  linear: 
    x: -0.000809269681339
    y: -0.000492864233889
    z: -0.00178138825879
  angular: 
    x: -0.00347407342717
    y: 0.00570231333572
    z: -9.06078938206e-06
---
header: 
  seq: 493
  stamp: 
    secs: 4
    nsecs: 305000000
  frame_id: ''
child_frame_id: ''
pose: 
  position: 
    x: 0.221430119501
    y: 0.260610059325
    z: 0.0182237829042
  orientation: 
    x: -0.491217131025
    y: -0.502543415548
    z: 0.508614554455
    w: -0.497460632286
twist: 
  linear: 
    x: -0.000804421687052
    y: -0.000494088160224
    z: -0.00176764442964
  angular: 
    x: -0.00347792052423
    y: 0.00566044505094
    z: -9.35240679251e-06
---
header: 
  seq: 494
  stamp: 
    secs: 4
    nsecs: 313000000
  frame_id: ''
child_frame_id: ''
pose: 
  position: 
    x: 0.21965044966
    y: 0.260920918641
    z: 0.0180639946538
  orientation: 
    x: -0.491198749392
    y: -0.502547537744
    z: 0.508632645486
    w: -0.497456121531
twist: 
  linear: 
    x: -0.000800374782526
    y: -0.000493428364842
    z: -0.00175235253398
  angular: 
    x: -0.00347963428734
    y: 0.00561460457883
    z: -3.46013896223e-06
---
header: 
  seq: 495
  stamp: 
    secs: 4
    nsecs: 321000000
  frame_id: ''
child_frame_id: ''
pose: 
  position: 
    x: 0.217885074398
    y: 0.261229285388
    z: 0.0179055861083
  orientation: 
    x: -0.491180443729
    y: -0.502551568759
    z: 0.508650666387
    w: -0.497451698179
twist: 
  linear: 
    x: -0.000794168110178
    y: -0.000496626550285
    z: -0.00174028891517
  angular: 
    x: -0.00348422602895
    y: 0.00557674308721
    z: -1.13268542918e-05
---
header: 
  seq: 496
  stamp: 
    secs: 4
    nsecs: 329000000
  frame_id: ''
child_frame_id: ''
pose: 
  position: 
    x: 0.216133873455
    y: 0.261535182198
    z: 0.0177485435366
  orientation: 
    x: -0.491162209018
    y: -0.502555512211
    z: 0.508668616216
    w: -0.497447364508
twist: 
  linear: 
    x: -0.000790804470712
    y: -0.000497334623985
    z: -0.00172819545979
  angular: 
    x: -0.00349043238854
    y: 0.00553875558828
    z: -8.17117970021e-06
---
header: 
  seq: 497
  stamp: 
    secs: 4
    nsecs: 337000000
  frame_id: ''
child_frame_id: ''
pose: 
  position: 
    x: 0.214396735326
    y: 0.261838628206
    z: 0.0175928561601
  orientation: 
    x: -0.491144047665
    y: -0.502559367422
    z: 0.508686495341
    w: -0.497443118474
twist: 
  linear: 
    x: -0.00078597049749
    y: -0.000498649684876
    z: -0.00171542832641
  angular: 
    x: -0.00349413182231
    y: 0.00549890827777
    z: -9.04422807571e-06
---
header: 
  seq: 498
  stamp: 
    secs: 4
    nsecs: 345000000
  frame_id: ''
child_frame_id: ''
pose: 
  position: 
    x: 0.212673546424
    y: 0.262139644446
    z: 0.0174385128466
  orientation: 
    x: -0.491125959339
    y: -0.502563136261
    z: 0.508704301756
    w: -0.497438960587
twist: 
  linear: 
    x: -0.000780571856382
    y: -0.000500065737834
    z: -0.00170236164098
  angular: 
    x: -0.00349653693685
    y: 0.00545822324136
    z: -1.11753703184e-05
---
header: 
  seq: 499
  stamp: 
    secs: 4
    nsecs: 353000000
  frame_id: ''
child_frame_id: ''
pose: 
  position: 
    x: 0.21096074661
    y: 0.262438847164
    z: 0.0172851874598
  orientation: 
    x: -0.491107938223
    y: -0.50256681961
    z: 0.508722043622
    w: -0.497434887372
twist: 
  linear: 
    x: -0.000777369830572
    y: -0.000500789600804
    z: -0.00169099347821
  angular: 
    x: -0.00350285237691
    y: 0.00542167280712
    z: -7.97322101317e-06
---
header: 
  seq: 500
  stamp: 
    secs: 4
    nsecs: 361000000
  frame_id: ''
child_frame_id: ''
pose: 
  position: 
    x: 0.209263430626
    y: 0.26273535127
    z: 0.017133336189
  orientation: 
    x: -0.49108998703
    y: -0.502570417628
    z: 0.508739718265
    w: -0.497430898742
twist: 
  linear: 
    x: -0.000772695421914
    y: -0.000502116605977
    z: -0.00167899413285
  angular: 
    x: -0.00350667677545
    y: 0.0053834542537
    z: -8.8687172018e-06
---
header: 
  seq: 501
  stamp: 
    secs: 4
    nsecs: 369000000
  frame_id: ''
child_frame_id: ''
pose: 
  position: 
    x: 0.207579760101
    y: 0.263029477902
    z: 0.0169827936126
  orientation: 
    x: -0.491072104845
    y: -0.502573932571
    z: 0.508757323712
    w: -0.49742699536
twist: 
  linear: 
    x: -0.0007689312213
    y: -0.000503249693756
    z: -0.00166788934128
  angular: 
    x: -0.00351141805209
    y: 0.00534716893541
    z: -7.81114319147e-06
---
header: 
  seq: 502
  stamp: 
    secs: 4
    nsecs: 377000000
  frame_id: ''
child_frame_id: ''
pose: 
  position: 
    x: 0.205907938044
    y: 0.263321536869
    z: 0.0168333930027
  orientation: 
    x: -0.491054287756
    y: -0.50257736417
    z: 0.508774867459
    w: -0.49742317371
twist: 
  linear: 
    x: -0.000764190443101
    y: -0.00050436325462
    z: -0.00165591074696
  angular: 
    x: -0.00351533408296
    y: 0.00530906072804
    z: -8.40215356612e-06
---
header: 
  seq: 503
  stamp: 
    secs: 4
    nsecs: 385000000
  frame_id: ''
child_frame_id: ''
pose: 
  position: 
    x: 0.204252905016
    y: 0.263610670884
    z: 0.0166855763722
  orientation: 
    x: -0.491036537893
    y: -0.50258071444
    z: 0.508792344241
    w: -0.497419435053
twist: 
  linear: 
    x: -0.000760448047971
    y: -0.000505581187684
    z: -0.00164529377543
  angular: 
    x: -0.00352001094359
    y: 0.00527380893353
    z: -7.69477675249e-06
---
header: 
  seq: 504
  stamp: 
    secs: 4
    nsecs: 393000000
  frame_id: ''
child_frame_id: ''
pose: 
  position: 
    x: 0.202611162851
    y: 0.26389748757
    z: 0.0165390271675
  orientation: 
    x: -0.491018851259
    y: -0.502583984213
    z: 0.50880975829
    w: -0.497415778188
twist: 
  linear: 
    x: -0.000756353120423
    y: -0.000505001377205
    z: -0.00163194182173
  angular: 
    x: -0.00352135512068
    y: 0.005231939802
    z: -2.86285296996e-06
---
header: 
  seq: 505
  stamp: 
    secs: 4
    nsecs: 401000000
  frame_id: ''
child_frame_id: ''
pose: 
  position: 
    x: 0.200980961348
    y: 0.26418228908
    z: 0.0163935854079
  orientation: 
    x: -0.491001228432
    y: -0.502587172994
    z: 0.508827114001
    w: -0.497412198561
twist: 
  linear: 
    x: -0.000751920552132
    y: -0.00050778217201
    z: -0.00162319866996
  angular: 
    x: -0.00352861850249
    y: 0.0052015868669
    z: -7.63575241246e-06
---
header: 
  seq: 506
  stamp: 
    secs: 4
    nsecs: 409000000
  frame_id: ''
child_frame_id: ''
pose: 
  position: 
    x: 0.199365488486
    y: 0.264464524029
    z: 0.0162495369474
  orientation: 
    x: -0.49098366925
    y: -0.502590283042
    z: 0.508844405827
    w: -0.497408699743
twist: 
  linear: 
    x: -0.000746667426609
    y: -0.000509389133763
    z: -0.00161206669027
  angular: 
    x: -0.00353103257699
    y: 0.00516518743599
    z: -1.08061301463e-05
---
header: 
  seq: 507
  stamp: 
    secs: 4
    nsecs: 417000000
  frame_id: ''
child_frame_id: ''
pose: 
  position: 
    x: 0.19776298615
    y: 0.264744495033
    z: 0.0161067175254
  orientation: 
    x: -0.490966168579
    y: -0.502593315117
    z: 0.508861641666
    w: -0.49740527797
twist: 
  linear: 
    x: -0.000743634521447
    y: -0.000510226988746
    z: -0.00160235180113
  angular: 
    x: -0.00353724702687
    y: 0.00513205798113
    z: -8.15872385398e-06
---
header: 
  seq: 508
  stamp: 
    secs: 4
    nsecs: 425000000
  frame_id: ''
child_frame_id: ''
pose: 
  position: 
    x: 0.196170145214
    y: 0.265022780824
    z: 0.0159648362877
  orientation: 
    x: -0.490948730485
    y: -0.502596269909
    z: 0.508878815676
    w: -0.49740193452
twist: 
  linear: 
    x: -0.000740116334726
    y: -0.000511477729588
    z: -0.00159280141976
  angular: 
    x: -0.00354210423625
    y: 0.00509910651582
    z: -7.49723602238e-06
---
header: 
  seq: 509
  stamp: 
    secs: 4
    nsecs: 433000000
  frame_id: ''
child_frame_id: ''
pose: 
  position: 
    x: 0.194591701312
    y: 0.265298555889
    z: 0.0158243101194
  orientation: 
    x: -0.490931351965
    y: -0.502599147983
    z: 0.508895931759
    w: -0.497398667815
twist: 
  linear: 
    x: -0.000734787783144
    y: -0.000512937301454
    z: -0.00158192433861
  angular: 
    x: -0.00354456023409
    y: 0.00506336407507
    z: -1.06756625232e-05
---
header: 
  seq: 510
  stamp: 
    secs: 4
